{
  "event": [
    {
      "id": 2,
      "name": "FlowerParade",
      "date": "04/15/2037",
      "time": "9am",
      "location": {
        "address": "127 Doormitie Strase ",
        "city": "Amsterdam",
        "country": "NIEDERLANDE"
      }
    },
    {
      "id": 3,
      "name": "BilderbergGroupingEvent",
      "date": "04/15/2037",
      "time": "9am",
      "location": {
        "address": "The Palatial America Hotel",
        "city": "Salt Lake City",
        "country": "UNITED STATES OF AMERICA"
      }
    },
    {
      "id": 4,
      "name": "UN Angular Summit",
      "date": "06/10/2037",
      "time": "8am",
      "location": {
        "address": "The UN Angular Center",
        "city": "Toronto",
        "country": "CANADA"
      }
    },
    {
      "id": 5,
      "name": "MotorcycleParade",
      "date": "06/10/2037",
      "time": "9pm",
      "location": {
        "address": "789 Pietro Str.",
        "city": "Marseilles",
        "country": "FRANCE"
      }
    },
    {
      "id": 6,
      "name": "Wine Festival",
      "date": "04/01/2037",
      "time": "9am",
      "location": {
        "address": "4532 Bartók Béla utca 123.",
        "city": "Badacsony",
        "country": "HUNGARY"
      }
    }
  ]
}